City_ID,City,Lat,Lng,Max Temp,Humidity,Cloudiness,Wind Speed,Country,Date
0,chaihe,44.7667,129.7,-25.72,99,35,0.45,CN,1707074150
1,ghat,24.9647,10.1728,13.04,24,0,3.12,LY,1707073553
2,mumford,5.2618,-0.759,26.97,80,63,4.61,GH,1707074150
3,ribeira grande,38.5167,-28.7,17.65,94,75,9.39,PT,1707074150
4,porto novo,6.4965,2.6036,26.1,73,99,2.89,BJ,1707074150
5,grytviken,-54.2811,-36.5092,4.04,70,18,6.5,GS,1707074151
6,ust'-ilimsk,58.0006,102.6619,-19.2,100,98,1.79,RU,1707074151
7,bowie,33.4501,-94.4335,13.49,66,85,3.42,US,1707074151
8,longyearbyen,78.2186,15.6401,-1.09,74,40,11.32,SJ,1707074151
9,adamstown,-25.066,-130.1015,24.91,79,100,3.69,PN,1707074151
10,margaret river,-33.95,115.0667,14.95,66,81,3.12,AU,1707074114
11,badger,64.8,-147.5333,-27.02,68,100,0.0,US,1707074151
12,chateau-renault,47.5919,0.9114,8.19,90,85,2.74,FR,1707074152
13,albany,42.6001,-73.9662,5.13,54,2,1.34,US,1707074152
14,nar'yan-mar,67.6713,53.087,-19.38,91,82,3.13,RU,1707074152
15,west island,-12.1568,96.8225,27.99,78,40,2.57,CC,1707074152
16,juneau,58.3019,-134.4197,3.0,95,100,4.63,US,1707074152
17,port-aux-francais,-49.35,70.2167,5.05,72,7,10.06,TF,1707074103
18,waitangi,-43.9535,-176.5597,17.12,87,95,0.89,NZ,1707074152
19,ugoofaaru,5.6667,73.0,27.62,77,27,4.39,MV,1707074153
20,ancud,-41.8697,-73.8203,18.17,55,54,4.7,CL,1707074153
21,petropavlovsk-kamchatsky,53.0452,158.6483,-13.64,81,0,3.13,RU,1707074153
22,ushuaia,-54.8,-68.3,18.81,55,40,4.12,AR,1707074153
23,bethel,41.3712,-73.414,7.53,46,0,4.63,US,1707073874
24,urangan,-25.3,152.9,23.44,89,13,2.24,AU,1707074153
25,haiku-pauwela,20.9219,-156.3051,20.7,84,75,7.2,US,1707074154
26,shibetsu,43.659,145.132,-8.85,82,26,4.26,JP,1707073963
27,blackmans bay,-43.0167,147.3167,12.51,96,49,0.89,AU,1707074154
28,tokar,18.4254,37.729,22.62,60,54,5.29,SD,1707074154
29,afaahiti,-17.75,-149.2833,26.93,86,100,6.66,PF,1707074154
30,aitape,-3.1374,142.3475,26.09,92,100,2.19,PG,1707074154
31,edinburgh of the seven seas,-37.0676,-12.3116,15.75,77,70,9.17,SH,1707074155
32,talnakh,69.4865,88.3972,-18.22,97,100,2.87,RU,1707074155
33,cidade velha,14.9167,-23.6167,25.26,61,0,6.69,CV,1707074155
34,thompson,55.7435,-97.8558,-2.91,86,100,4.63,CA,1707074155
35,suva,-18.1416,178.4415,24.71,94,75,3.6,FJ,1707074155
36,codrington,-38.2667,141.9667,15.95,82,100,6.21,AU,1707074155
37,stephenville,32.2207,-98.2023,15.69,64,75,7.72,US,1707074155
38,laguna,38.421,-121.4238,13.99,82,100,10.29,US,1707074156
39,lompoc,34.6391,-120.4579,14.32,83,100,13.41,US,1707073972
40,souillac,-20.5167,57.5167,25.21,61,75,2.06,MU,1707074156
41,abu jibeha,11.4562,31.2285,24.46,14,13,3.72,SD,1707074156
42,sandnessjoen,66.0217,12.6316,-0.88,93,100,3.09,NO,1707074156
43,alice springs,-23.7,133.8833,29.75,43,17,3.09,AU,1707074156
44,whitehorse,60.7161,-135.0538,-26.57,69,75,2.06,CA,1707074112
45,hermanus,-34.4187,19.2345,20.45,88,4,1.03,ZA,1707074123
46,aasiaat,68.7098,-52.8699,-31.66,89,10,1.8,GL,1707074157
47,richfield,44.8833,-93.283,8.45,65,75,3.6,US,1707074157
48,puerto natales,-51.7236,-72.4875,24.25,35,75,16.98,CL,1707074157
49,fukui-shi,36.0644,136.2226,3.93,77,100,2.57,JP,1707073883
50,cidreira,-30.1811,-50.2056,27.39,75,2,4.37,BR,1707074157
51,hasaki,35.7333,140.8333,0.22,58,100,3.19,JP,1707074157
52,st. john's,47.5649,-52.7093,1.66,96,100,12.35,CA,1707074157
53,nemuro,43.3236,145.575,-6.51,71,11,7.58,JP,1707074158
54,utrik,11.2278,169.8474,25.93,72,39,7.12,MH,1707074158
55,kingston,17.997,-76.7936,30.09,68,75,4.12,JM,1707073816
56,mahina,-17.5065,-149.489,27.87,74,40,3.6,PF,1707074158
57,lluta,-16.0147,-72.0142,17.1,64,6,5.21,PE,1707074158
58,atafu village,-8.5421,-172.5159,28.65,79,100,9.91,TK,1707074158
59,voss,60.623,6.4229,-0.27,92,100,4.03,NO,1707074158
60,hadibu,12.65,54.0333,25.38,73,22,5.11,YE,1707074134
61,udachny,66.4167,112.4,-31.64,96,56,2.3,RU,1707074159
62,geraldton,-28.7667,114.6,17.23,72,45,7.72,AU,1707074159
63,ta`u,-14.2336,-169.5144,26.78,90,100,18.23,AS,1707074159
64,kununurra,-15.7667,128.7333,26.99,94,8,2.06,AU,1707073644
65,iqaluit,63.7506,-68.5145,-20.15,84,75,4.12,CA,1707074118
66,tsiombe,-25.3,45.4833,24.21,87,100,3.31,MG,1707074159
67,las lomitas,-24.7096,-60.593,42.12,19,98,1.76,AR,1707074160
68,ogre,56.8162,24.614,0.85,91,100,3.31,LV,1707074160
69,tura,25.5198,90.2201,13.5,44,67,1.4,IN,1707074160
70,verkhnyaya khava,51.8404,39.9413,1.04,88,100,6.35,RU,1707074160
71,villa angela,-27.5738,-60.7153,40.21,22,99,2.83,AR,1707074160
72,polyarnyy,69.1989,33.4478,-11.53,84,100,7.03,RU,1707074144
73,altar,30.7,-111.8167,17.91,26,0,2.36,MX,1707074160
74,chonchi,-42.6128,-73.8092,25.56,30,3,0.97,CL,1707074161
75,sovetskaya gavan',48.9723,140.2878,-18.83,89,16,2.58,RU,1707074161
76,najran,17.4924,44.1277,19.36,41,0,0.71,SA,1707074161
77,port lincoln,-34.7333,135.8667,16.89,69,100,6.69,AU,1707074133
78,bodaybo,57.8506,114.1933,-28.08,98,100,0.74,RU,1707074161
79,lerwick,60.1545,-1.1494,5.0,66,100,13.92,GB,1707074161
80,antalaha,-14.9003,50.2788,24.67,91,100,2.65,MG,1707074162
81,yuzhno-kurilsk,44.0306,145.8556,-4.24,71,58,8.33,RU,1707074162
82,punta arenas,-53.15,-70.9167,20.06,60,75,2.57,CL,1707074002
83,touros,-5.1989,-35.4608,29.45,64,5,7.49,BR,1707074162
84,bredasdorp,-34.5322,20.0403,22.87,82,25,2.3,ZA,1707074120
85,kuala belait,4.5833,114.1833,24.1,94,100,1.81,BN,1707074162
86,hawaiian paradise park,19.5933,-154.9731,21.61,84,100,6.17,US,1707074119
87,port augusta,-32.5,137.7667,21.07,67,0,10.19,AU,1707074163
88,quila,24.4228,-107.22,23.92,20,0,3.51,MX,1707074163
89,ust-nera,64.5667,143.2,-29.44,97,98,1.88,RU,1707074163
90,mugia,43.1041,-9.2179,12.73,84,88,0.71,ES,1707074163
91,isafjordur,66.0755,-23.124,-5.22,87,100,6.14,IS,1707074164
92,sitka,57.0531,-135.33,2.94,100,100,3.6,US,1707074164
93,saudarkrokur,65.7461,-19.6394,-9.91,82,99,2.37,IS,1707074164
94,oranjemund,-28.55,16.4333,20.1,87,0,1.83,NA,1707074164
95,north haven,41.3909,-72.8595,8.6,42,0,5.14,US,1707074164
96,mascoutah,38.4903,-89.7932,11.83,62,75,4.12,US,1707074041
97,lydenburg,-25.0978,30.4597,16.22,94,33,1.21,ZA,1707074165
98,ilulissat,69.2167,-51.1,-20.99,54,8,2.57,GL,1707074165
99,beyneu,45.3167,55.2,2.43,89,98,4.09,KZ,1707074165
100,lampasas,31.2168,-98.2336,16.94,58,0,6.17,US,1707074106
101,hami,42.8,93.45,-5.14,64,0,2.44,CN,1707074151
102,nadym,65.5333,72.5167,-16.79,97,100,2.41,RU,1707074166
103,papatowai,-46.5619,169.4708,13.24,98,100,2.29,NZ,1707074166
104,yellowknife,62.456,-114.3525,-19.84,79,20,2.06,CA,1707074166
105,mount pearl,47.5166,-52.7813,1.19,97,100,12.35,CA,1707074166
106,avarua,-21.2078,-159.775,28.03,74,40,2.57,CK,1707074166
107,beledweyne,4.7358,45.2036,29.64,31,35,6.4,SO,1707074166
108,lebu,-37.6167,-73.65,18.71,65,0,5.36,CL,1707074167
109,greenville,35.6127,-77.3663,13.09,44,0,5.14,US,1707074046
110,esmeraldas,-19.7625,-44.3139,30.41,67,100,0.31,BR,1707074101
111,vernon,50.2581,-119.2691,2.64,90,100,1.54,CA,1707074167
112,turkestan,43.3333,68.25,-1.37,83,96,3.57,KZ,1707074167
113,dudinka,69.4058,86.1778,-17.99,96,98,3.98,RU,1707074167
114,tommot,58.9564,126.2925,-35.23,99,100,0.4,RU,1707074167
115,dolbeau-mistassini,48.8763,-72.212,-7.74,85,92,0.47,CA,1707073905
116,road town,18.4167,-64.6167,28.02,65,75,3.09,VG,1707073949
117,leh,34.1667,77.5833,-15.6,82,48,0.17,IN,1707073663
118,hamilton,39.1834,-84.5333,13.69,44,0,5.14,US,1707073972
119,invercargill,-46.4,168.35,13.9,98,98,0.89,NZ,1707074168
120,santarem,-2.4431,-54.7083,31.07,70,20,6.17,BR,1707074168
121,south bend,41.6834,-86.25,8.23,68,0,2.06,US,1707073908
122,xichang,27.8964,102.2634,4.81,68,2,0.95,CN,1707074169
123,queenstown,-31.8976,26.8753,18.38,81,93,2.91,ZA,1707074169
124,pangody,65.85,74.4859,-16.18,97,100,2.41,RU,1707074169
125,boa vista,2.8197,-60.6733,35.99,30,40,5.14,BR,1707073635
126,aqaba,29.5267,35.0078,15.92,29,0,2.06,JO,1707074169
127,selfoss,63.9331,-20.9971,-13.31,83,4,3.85,IS,1707074170
128,salina cruz,16.1667,-95.2,29.32,56,7,3.04,MX,1707073984
129,ouallam,14.3188,2.0866,24.48,10,6,5.14,NE,1707074170
130,port isabel,26.0734,-97.2086,27.05,20,0,8.75,US,1707074100
131,kisangani,0.5167,25.2,27.08,38,42,1.01,CD,1707074170
132,monte alegre,-2.0078,-54.0692,31.65,55,92,3.12,BR,1707074170
133,qal'ah-ye shahr,35.5473,65.5676,-8.04,67,0,4.38,AF,1707074171
134,cadale,2.7603,46.3222,26.07,80,100,9.93,SO,1707074171
135,jamestown,42.097,-79.2353,6.8,39,0,3.09,US,1707073900
136,roxas,11.5853,122.7511,24.52,89,39,4.8,PH,1707074171
137,al ghayzah,16.2079,52.176,24.28,63,6,2.63,YE,1707074171
138,santa ana,33.7456,-117.8678,16.92,66,75,5.14,US,1707073997
139,tadine,-21.55,167.8833,26.22,89,100,7.99,NC,1707074172
140,recani,31.2846,-4.2688,13.12,34,46,2.68,MA,1707074172
141,conception bay south,47.4999,-52.9981,1.53,97,100,10.09,CA,1707074172
142,timbuktu,16.7735,-3.0074,23.23,7,14,5.43,ML,1707074172
143,bardai,11.65,7.2333,21.54,15,100,4.69,NG,1707074172
144,la ronge,55.1001,-105.2842,-7.86,62,75,2.06,CA,1707074172
145,leticia,-4.2153,-69.9406,26.03,94,20,3.6,CO,1707074173
146,kirakira,-10.4544,161.9205,26.56,88,55,4.05,SB,1707074173
147,puerto santa,-8.9906,-78.6456,26.55,71,100,4.27,PE,1707074177
148,tarawa,1.419,172.984,29.05,84,75,3.6,KI,1707074177
149,luderitz,-26.6481,15.1594,19.78,83,4,4.16,NA,1707074178
150,salalah,17.0151,54.0924,25.05,61,0,1.54,OM,1707074178
151,port mathurin,-19.6833,63.4167,26.21,72,69,6.99,MU,1707074178
152,freetown,8.484,-13.2299,27.84,69,40,4.12,SL,1707074178
153,kangasala,61.4638,24.076,-1.21,80,97,4.01,FI,1707074178
154,bilibino,68.0546,166.4372,-31.43,82,8,2.42,RU,1707074178
155,quellon,-43.1167,-73.6167,19.22,47,0,0.78,CL,1707074179
156,nzerekore,7.7562,-8.8179,27.37,20,99,1.53,GN,1707074179
157,westport,41.1415,-73.3579,8.02,40,0,6.69,US,1707074179
158,callao,-12.0667,-77.15,29.16,58,0,4.63,PE,1707074179
159,tiksi,71.6872,128.8694,-33.62,100,95,0.3,RU,1707074179
160,dikwa,12.024,13.9165,23.34,24,100,4.4,NG,1707074179
161,shimoda,34.6667,138.95,4.5,76,100,4.71,JP,1707074180
162,georgetown,5.4112,100.3354,27.96,83,20,2.06,MY,1707074180
163,malango,-2.9627,119.9001,20.66,97,100,1.32,ID,1707074180
164,saint-philippe,-21.3585,55.7679,22.77,72,38,3.6,RE,1707074180
165,olonkinbyen,70.9221,-8.7187,-6.15,74,100,9.23,SJ,1707074129
166,cicero dantas,-10.6,-38.3833,28.92,52,100,4.54,BR,1707074164
167,sehwan,26.4279,67.863,17.18,60,6,1.06,PK,1707074181
168,berdigestyakh,62.0989,126.6992,-34.27,100,94,0.98,RU,1707074181
169,kodiak,57.79,-152.4072,-0.27,93,75,4.12,US,1707074181
170,vila franca do campo,37.7167,-25.4333,18.27,99,5,3.3,PT,1707074181
171,igarapava,-20.0383,-47.7469,23.18,73,100,2.16,BR,1707074181
172,puerto ayora,-0.7393,-90.3518,28.98,88,67,3.13,EC,1707074119
173,vila velha,-20.3297,-40.2925,29.97,72,20,5.66,BR,1707074182
174,nova sintra,14.8667,-24.7167,21.52,69,0,3.85,CV,1707074182
175,hiji,33.3667,131.5333,7.76,98,100,3.03,JP,1707074182
176,keflavik,64.0049,-22.5624,-4.76,86,75,4.12,IS,1707074182
177,gewane,10.1664,40.6453,28.26,50,100,3.9,ET,1707074182
178,benguela,-12.5763,13.4055,28.16,72,100,0.44,AO,1707074182
179,nizhnyaya poyma,56.1622,97.1933,-9.83,87,100,2.02,RU,1707074183
180,khovd,48.0056,91.6419,-19.67,92,100,0.77,MN,1707074183
181,port elizabeth,-33.918,25.5701,23.39,95,20,2.06,ZA,1707074183
182,stanley,54.868,-1.6985,12.77,83,75,10.8,GB,1707074183
183,strezhevoy,60.7333,77.5889,-15.02,96,100,3.58,RU,1707074183
184,alenquer,-1.9417,-54.7383,33.0,49,54,3.47,BR,1707074184
185,ketchikan,55.3422,-131.6461,4.08,93,100,0.0,US,1707074184
186,dara,15.3484,-15.4799,30.45,7,98,3.68,SN,1707074184
187,kruisfontein,-34.0033,24.7314,22.16,77,93,1.26,ZA,1707074184
188,ribeira brava,32.65,-17.0667,20.35,61,100,3.48,PT,1707074184
189,bukittinggi,-0.3091,100.3706,18.63,97,69,0.41,ID,1707074184
190,kavieng,-2.5744,150.7967,28.47,78,96,3.45,PG,1707074185
191,vadso,70.0744,29.7487,-3.91,74,100,7.2,NO,1707074185
192,praia da vitoria,38.7333,-27.0667,18.2,94,40,5.65,PT,1707074185
193,enewetak,11.3474,162.3373,26.43,75,100,8.74,MH,1707074185
194,amga,60.8953,131.9608,-39.81,100,83,0.54,RU,1707074185
195,kerikeri,-35.2268,173.9474,12.17,91,3,1.63,NZ,1707073909
196,lamar,33.6668,-95.5836,14.24,77,100,3.6,US,1707074185
197,luanda,-8.8368,13.2343,26.99,77,85,2.42,AO,1707074186
198,saipan,15.1355,145.701,26.39,69,40,8.75,MP,1707074186
199,kodinsk,58.6881,99.1844,-14.2,97,100,1.93,RU,1707074186
200,igarka,67.4667,86.5833,-14.97,96,100,3.91,RU,1707074186
201,anadyr,64.75,177.4833,-12.72,66,100,3.0,RU,1707074186
202,akureyri,65.6835,-18.0878,-12.04,85,20,2.06,IS,1707074186
203,kidal,18.4411,1.4078,20.09,9,0,5.31,ML,1707074186
204,mahdia,35.5047,11.0622,13.97,60,3,2.62,TN,1707074187
205,soio,-6.1349,12.3689,27.17,79,61,3.58,AO,1707074187
206,twon-brass,4.3151,6.2418,28.3,76,100,4.88,NG,1707074187
207,vilyuchinsk,52.9306,158.4028,-12.82,77,97,4.11,RU,1707074187
208,arkhangel'sk,64.5401,40.5433,-7.94,93,100,6.0,RU,1707074188
209,coahuayana de hidalgo,18.7,-103.6583,29.31,37,0,2.8,MX,1707074188
210,acarau,-2.8856,-40.12,30.48,65,40,9.58,BR,1707074184
211,aegina,37.7467,23.4275,14.55,66,0,4.7,GR,1707074188
212,port alfred,-33.5906,26.891,24.43,76,100,3.79,ZA,1707074188
213,planaltina,-15.4528,-47.6142,21.93,79,97,1.2,BR,1707074188
214,new norfolk,-42.7826,147.0587,13.17,97,45,0.74,AU,1707074189
215,kismayo,-0.3582,42.5454,27.27,83,51,6.64,SO,1707074189
216,takanabe,32.1333,131.5,10.94,98,100,4.21,JP,1707074189
217,alaghsas,17.0187,8.0168,19.29,13,1,9.78,NE,1707073649
218,wailua homesteads,22.0669,-159.378,22.44,69,40,10.8,US,1707074189
219,sidney,-33.8679,151.2073,25.95,86,75,1.54,AU,1707073906
220,cape canaveral,28.4058,-80.6048,22.22,84,100,6.17,US,1707074189
221,lihue,21.9789,-159.3672,22.77,67,40,10.8,US,1707073655
222,katsuura,35.1333,140.3,7.1,80,100,4.48,JP,1707074190
223,pocatello,42.8713,-112.4455,3.95,61,40,8.23,US,1707074190
224,westhill,57.1526,-2.2797,7.14,80,100,2.06,GB,1707074190
225,iskateley,67.6803,53.1512,-19.43,91,85,3.13,RU,1707074190
226,north bend,43.4065,-124.2243,10.65,66,0,4.12,US,1707074190
227,tutoia,-2.7619,-42.2744,29.51,73,14,6.29,BR,1707074191
228,kawambwa,-9.7915,29.0791,18.41,96,95,0.82,ZM,1707074191
229,sungai raya,0.7,108.9,25.7,89,100,2.09,ID,1707074191
230,raduzhnyy,62.0961,77.475,-18.32,97,100,3.27,RU,1707074191
231,askoy,60.4092,5.226,3.2,65,20,8.23,NO,1707074191
232,port-vila,-17.7338,168.3219,24.78,100,40,0.51,VU,1707074192
233,wangkui,46.8333,126.5,-29.19,100,50,1.74,CN,1707074192
234,weno,7.4515,151.8468,26.97,94,100,4.12,FM,1707074130
235,phu ly,20.5411,105.9139,22.31,91,100,2.89,VN,1707074192
236,kirsanov,52.6549,42.7224,-0.42,87,98,6.71,RU,1707074192
237,champerico,14.3,-91.9167,33.3,63,12,8.49,GT,1707074192
238,sao joao da barra,-21.6403,-41.0511,30.05,81,100,4.78,BR,1707074193
239,college,64.8569,-147.8028,-26.97,71,75,0.0,US,1707074193
240,mossel bay,-34.1831,22.146,19.96,88,0,2.21,ZA,1707074193
241,carnarvon,-24.8667,113.6333,22.64,63,0,11.4,AU,1707074193
242,reyes,-14.3167,-67.3833,35.09,52,20,2.57,BO,1707074193
243,bamor kalan,24.9,78.15,16.92,79,79,3.73,IN,1707074193
244,paita,-5.0892,-81.1144,26.68,71,94,6.11,PE,1707074193
245,fort mcmurray,56.7268,-111.381,-8.23,79,0,2.06,CA,1707074137
246,cabo san lucas,22.8909,-109.9124,26.45,56,0,5.14,MX,1707073923
247,klodawa,52.2545,18.9135,6.39,74,100,10.82,PL,1707074194
248,sola,-13.8833,167.55,27.93,82,97,8.63,VU,1707074194
249,yamada,39.4667,141.95,-0.66,63,20,2.09,JP,1707074194
250,remire-montjoly,4.9167,-52.2667,31.02,70,40,6.69,GF,1707074194
251,mount gambier,-37.8333,140.7667,15.06,71,98,4.14,AU,1707074102
252,talcahuano,-36.7167,-73.1167,18.82,63,0,8.75,CL,1707074195
253,veinticinco de mayo,-35.4323,-60.1727,33.7,9,89,3.19,AR,1707074146
254,klyuchi,52.2667,79.1667,-4.42,89,100,5.39,RU,1707074195
255,natal,-5.795,-35.2094,30.36,74,40,5.66,BR,1707074062
256,bukama,-9.2,25.85,22.66,93,100,0.29,CD,1707074195
257,vico del gargano,41.8983,15.9576,7.7,70,0,1.27,IT,1707074195
258,san patricio,28.017,-97.5169,24.05,35,0,11.18,US,1707074196
259,mancio lima,-7.6142,-72.8958,31.04,66,40,2.57,BR,1707074196
260,chita,52.0333,113.55,-23.06,71,98,2.0,RU,1707074196
261,mejit,10.2753,170.8646,26.24,77,53,8.49,MH,1707074196
262,fonte boa,-2.4959,-66.2662,28.22,73,100,1.94,BR,1707074196
263,usol'ye,59.4268,56.6808,-16.7,91,100,3.16,RU,1707074196
264,egilsstadir,65.2653,-14.3948,-7.05,79,75,1.54,IS,1707074186
265,tamazulapam villa del progreso,17.6806,-97.5689,23.67,14,5,3.23,MX,1707074197
266,arraial do cabo,-22.9661,-42.0278,27.98,78,75,6.17,BR,1707074197
267,bagua grande,-5.7561,-78.4411,33.6,49,88,1.77,PE,1707074197
268,palmer,42.1584,-72.3287,6.7,38,0,3.13,US,1707074197
269,metro,-5.1131,105.3067,24.18,95,100,0.66,ID,1707074197
270,ballina,-28.8667,153.5667,22.66,73,88,3.94,AU,1707074197
271,rabaul,-4.1967,152.1721,26.99,82,100,2.48,PG,1707074198
272,kapa'a,22.0752,-159.319,23.18,66,40,10.8,US,1707074198
273,fort bragg,35.139,-79.006,13.44,40,0,5.66,US,1707074198
274,balykshi,47.0667,51.8667,2.0,87,75,11.0,KZ,1707074198
275,port saint john's,-31.6229,29.5448,24.46,89,100,5.07,ZA,1707074198
276,lasem,-6.6922,111.4527,24.24,96,100,2.77,ID,1707074199
277,saynshand,44.8824,110.1163,-14.93,96,100,2.58,MN,1707074199
278,smithers,54.7804,-127.1743,-9.82,85,0,2.57,CA,1707074121
279,papao,-17.75,-149.55,27.82,83,100,6.11,PF,1707074199
280,zayed city,24.3768,54.589,21.67,54,0,3.09,AE,1707074199
281,butner,36.1321,-78.7567,13.49,43,13,3.12,US,1707074199
282,okhotsk,59.3833,143.3,-23.16,79,15,6.58,RU,1707074199
283,adrar,20.5022,-10.0711,20.98,9,55,5.25,MR,1707074199
284,pitimbu,-7.4706,-34.8086,31.33,65,1,5.64,BR,1707074200
285,hanting,36.7708,119.2108,-3.55,90,100,5.55,CN,1707074200
286,phalodi,27.1333,72.3667,16.53,60,0,2.78,IN,1707074200
287,sarmiento,-45.5882,-69.07,31.88,15,20,10.48,AR,1707074200
288,la passe,45.5549,-0.8967,8.13,88,91,2.52,FR,1707074147
289,wellawaya,6.7318,81.1018,22.74,91,99,2.78,LK,1707074200
290,undurkhaan,47.3194,110.6556,-19.53,92,100,0.48,MN,1707074201
291,calipatria,33.1256,-115.5142,19.36,51,0,4.47,US,1707074201
292,saint-jean-de-monts,46.7833,-2.0667,9.21,83,69,1.82,FR,1707074201
293,nouadhibou,20.931,-17.0347,21.69,46,19,3.52,MR,1707074201
294,kristiansund,63.1115,7.732,0.36,93,75,2.57,NO,1707074201
295,mahibadhoo,3.7833,72.9667,27.97,76,86,8.22,MV,1707074201
296,murud,18.3258,72.965,24.04,64,0,1.83,IN,1707074202
297,sarangani,5.4033,125.4636,27.18,78,11,9.64,PH,1707073990
298,hammerfest,70.6634,23.6821,-3.75,80,75,2.57,NO,1707074202
299,tacuarembo,-31.7333,-55.9833,35.31,34,26,2.08,UY,1707074202
300,mabaruma,8.2,-59.7833,31.25,53,100,2.63,GY,1707074202
301,fargo,46.8772,-96.7898,1.99,80,100,0.0,US,1707073891
302,pembroke,45.8168,-77.1162,-1.01,80,100,1.31,CA,1707074203
303,novodvinsk,64.4165,40.8122,-8.14,93,100,4.1,RU,1707074167
304,palikir - national government center,6.9248,158.1611,26.41,83,100,4.63,FM,1707074203
305,vorgashor,67.5833,63.95,-16.84,91,100,1.11,RU,1707074203
306,constantia,44.1833,28.65,8.38,80,100,5.27,RO,1707074090
307,melfort,52.8667,-104.6177,-2.93,93,100,4.63,CA,1707074203
308,mwanza,-2.5167,32.9,23.63,71,100,2.11,TZ,1707074203
309,nova xavantina,-14.6667,-52.35,24.92,81,99,2.25,BR,1707074204
310,kalaswala,32.2009,74.6491,9.46,93,0,1.84,PK,1707074204
311,luza,60.6308,47.2512,-12.23,95,100,3.98,RU,1707074204
312,banff,51.1762,-115.5698,-3.79,86,100,1.54,CA,1707074204
313,demidov,55.2706,31.515,-3.38,91,92,2.94,RU,1707074204
314,yangambi,0.8102,24.4336,26.04,40,37,0.67,CD,1707074204
315,vilyuysk,63.7553,121.6247,-37.22,100,40,0.89,RU,1707074205
316,megion,61.0296,76.1136,-16.99,96,100,4.68,RU,1707074205
317,ibipeba,-11.6408,-42.0111,31.33,35,13,4.76,BR,1707074205
318,at taj,24.2049,23.2857,11.37,42,0,3.61,LY,1707074205
319,alpena,45.0617,-83.4327,6.51,81,0,2.06,US,1707074205
320,jiangyou,31.7667,104.7167,4.86,83,100,1.46,CN,1707074205
321,koulamoutou,-1.1303,12.4736,24.16,90,100,1.29,GA,1707074206
322,tshabong,-26.05,22.45,30.83,24,1,2.48,BW,1707074206
323,kosice,48.6667,21.3333,8.41,77,0,1.54,SK,1707074206
324,isabela,6.7085,121.9711,25.51,84,0,1.67,PH,1707074206
325,fale old settlement,-9.3852,-171.2468,29.14,77,100,11.33,TK,1707074206
326,caldwell,43.6629,-116.6874,7.81,82,75,4.63,US,1707074206
327,minas de marcona,-15.2119,-75.1103,23.63,66,64,4.64,PE,1707074206
328,jatoi shimali,29.5165,70.8503,13.17,60,1,3.93,PK,1707074207
329,namie,37.4833,141.0,4.29,72,99,4.57,JP,1707074207
330,crane,31.3974,-102.3501,15.57,17,0,11.78,US,1707073780
331,kailua-kona,19.6406,-155.9956,24.72,71,20,0.0,US,1707074105
332,flying fish cove,-10.4217,105.6791,24.82,94,100,1.54,CX,1707074149
333,lata,40.1629,-8.3327,14.9,80,100,0.33,PT,1707074207
334,gaalkacyo,6.7697,47.4308,23.59,66,9,8.95,SO,1707074207
335,al jahra',29.3375,47.6581,15.9,39,20,1.52,KW,1707074207
336,benjamin constant,-4.3831,-70.0311,26.07,94,75,3.6,BR,1707074208
337,fisterra,42.9049,-9.2629,12.64,82,83,0.3,ES,1707074208
338,kario ghanwar,24.8082,68.6045,20.96,77,14,2.82,PK,1707074208
339,bakhmach,51.1808,32.7569,1.54,84,100,6.0,UA,1707074208
340,shahr-e babak,30.1165,55.1186,2.86,21,0,1.8,IR,1707074208
341,leshan,29.5623,103.7639,7.72,82,100,1.0,CN,1707074209
342,lampazos de naranjo,27.0167,-100.5167,24.6,11,0,8.07,MX,1707074209
343,vrangel',42.7297,133.0839,-10.45,67,89,5.25,RU,1707074193
344,el nido,11.1858,119.3956,26.53,80,6,5.25,PH,1707074209
345,kualakapuas,-3.0091,114.3876,23.59,98,100,0.66,ID,1707074209
346,hastings,50.8552,0.5729,11.66,44,100,10.66,GB,1707074209
347,pullman,46.7313,-117.1796,6.13,95,75,4.12,US,1707074208
348,luumaki,60.9262,27.5814,-0.97,95,98,2.42,FI,1707074186
349,mogadishu,2.0371,45.3438,26.49,86,100,10.0,SO,1707074210
350,kapuskasing,49.4169,-82.4331,5.0,52,20,1.03,CA,1707074135
351,quelimane,-17.8786,36.8883,27.97,78,20,2.57,MZ,1707074210
352,chui,-33.6971,-53.4616,24.38,59,34,6.12,UY,1707074193
353,san luis de la loma,17.2706,-100.8939,28.96,46,0,5.3,MX,1707074210
354,buriti dos lopes,-3.175,-41.8669,31.86,58,74,5.05,BR,1707074210
355,qaqortoq,60.7167,-46.0333,-19.92,70,0,2.07,GL,1707074211
356,boden,65.8252,21.6886,-5.0,98,95,2.09,SE,1707074211
357,cabedelo,-6.9811,-34.8339,31.37,64,0,6.27,BR,1707074211
358,alghero,40.5589,8.3181,14.05,88,40,4.12,IT,1707074211
359,hithadhoo,-0.6,73.0833,28.47,76,99,5.74,MV,1707074211
360,gaillac,43.9016,1.8969,7.53,82,45,1.06,FR,1707074211
361,sidhi,24.4167,81.8833,18.11,64,100,2.35,IN,1707074212
362,golere,16.2557,-14.1017,30.07,7,57,4.27,SN,1707074212
363,puerto aysen,-45.4,-72.7,20.98,59,10,1.92,CL,1707074212
364,usinsk,65.9939,57.5281,-23.85,99,27,0.89,RU,1707074212
365,tutong,4.8,114.65,25.05,95,100,2.11,BN,1707074212
366,puerto cabezas,14.0351,-83.3888,28.98,84,40,5.14,NI,1707074212
367,shizuoka,34.9769,138.3831,7.99,79,100,2.5,JP,1707074012
368,sarkad,46.75,21.3833,10.53,72,100,7.18,HU,1707074213
369,santa terezinha,-29.9002,-50.0904,28.24,70,6,2.49,BR,1707074213
370,nema,57.5067,50.5011,-8.83,94,100,6.3,RU,1707074213
371,kamen'-na-obi,53.7884,81.3423,-1.87,89,100,7.1,RU,1707074213
372,carutapera,-1.195,-46.02,29.98,64,20,4.37,BR,1707074213
373,mukalla,14.5425,49.1242,24.3,77,28,2.67,YE,1707074213
374,mar del plata,-38.0023,-57.5575,20.53,61,20,4.12,AR,1707074170
375,gizo,-8.103,156.8419,28.09,77,74,4.47,SB,1707074214
376,parun,35.4207,70.9221,-13.63,91,54,4.05,AF,1707074214
377,khandyga,62.6667,135.6,-43.69,100,67,0.58,RU,1707074141
378,bodo,67.28,14.405,1.02,62,20,6.17,NO,1707074010
379,coquimbo,-29.9533,-71.3436,23.85,60,75,4.12,CL,1707073997
380,illapel,-31.6308,-71.1653,29.18,42,61,4.56,CL,1707074174
381,mount carmel,38.4109,-87.7614,13.79,52,100,4.97,US,1707074215
382,kavaratti,10.5669,72.642,27.78,70,46,3.85,IN,1707073659
383,daru,-9.0763,143.2092,25.95,91,100,3.18,PG,1707074215
384,cockburn town,21.4612,-71.1419,25.98,65,75,6.17,TC,1707074215
385,kudymkar,59.0173,54.656,-14.75,97,100,3.24,RU,1707074215
386,constitucion,-35.3333,-72.4167,20.58,63,5,3.11,CL,1707074020
387,mantua,45.1667,10.7833,10.05,96,100,0.92,IT,1707074216
388,bamboo flat,11.7,92.7167,24.98,71,18,4.19,IN,1707074216
389,aswan,24.0934,32.907,14.12,25,44,4.54,EG,1707074216
390,qarazhal,48.0078,70.7903,-4.98,93,100,5.65,KZ,1707074216
391,kiruna,67.8557,20.2251,-7.49,93,100,2.06,SE,1707074216
392,nago,26.5881,127.9761,24.47,87,100,6.97,JP,1707074216
393,lucapa,-8.4192,20.7447,20.21,94,100,1.45,AO,1707074216
394,sao paulo de olivenca,-3.3783,-68.8725,24.39,98,100,0.97,BR,1707074217
395,taguatinga,-12.3857,-46.5711,30.65,48,60,2.77,BR,1707074217
396,joao pinheiro,-17.7425,-46.1725,25.18,63,100,2.22,BR,1707074217
397,divo,5.8397,-5.36,28.73,46,100,2.35,CI,1707074217
398,muroto-misakicho,33.2833,134.15,9.86,81,100,10.43,JP,1707074217
399,al kharijah,25.4514,30.5464,11.54,30,0,3.32,EG,1707074217
400,kaya,13.0917,-1.0844,26.04,11,5,4.56,BF,1707074218
401,talavera de la reina,39.9635,-4.8308,10.18,65,1,1.31,ES,1707074218
402,orthez,43.4884,-0.7724,11.54,73,77,1.7,FR,1707074218
403,newman,37.3138,-121.0208,13.49,90,100,8.49,US,1707074218
404,caorle,45.5966,12.8758,9.57,76,53,0.83,IT,1707074218
405,uturoa,-16.7333,-151.4333,27.03,85,100,6.93,PF,1707074218
406,belev,53.8119,36.1319,-0.61,85,96,6.94,RU,1707074218
407,mount isa,-20.7333,139.5,25.87,89,72,3.09,AU,1707074136
408,kalilangan,7.8211,124.7314,18.02,93,8,0.74,PH,1707074219
409,san julian,21.0167,-102.1667,20.54,10,0,3.28,MX,1707074219
410,zeerust,-25.5369,26.0751,25.19,37,72,1.94,ZA,1707074219
411,myitkyina,25.3833,97.4,12.33,69,4,0.99,MM,1707074219
412,bandar-e lengeh,26.5579,54.8807,19.46,28,0,6.74,IR,1707074219
413,kenora,49.8167,-94.4337,1.54,100,100,1.54,CA,1707074219
414,petropavlovka,50.6114,105.3196,-16.98,95,100,0.72,RU,1707074220
415,broome,42.2506,-75.833,6.61,49,0,0.89,US,1707074220
416,krasnyy chikoy,50.3643,108.7512,-22.61,100,55,0.29,RU,1707074220
417,saldanha,-33.0117,17.9442,22.03,84,100,2.77,ZA,1707074220
418,bayevo,53.2833,80.7667,-2.46,89,100,7.14,RU,1707074220
419,iquique,-20.2208,-70.1431,28.02,64,0,2.41,CL,1707074220
420,kuqa,41.7278,82.9364,-3.66,73,100,1.61,CN,1707074220
421,summit park,40.7458,-111.6116,0.68,62,26,1.79,US,1707074221
422,hotan,37.0997,79.9269,-2.26,74,100,2.14,CN,1707074203
423,grand falls-windsor,48.9332,-55.6649,0.28,94,100,2.68,CA,1707074221
424,sur,22.5667,59.5289,21.43,62,4,2.51,OM,1707074221
425,tamasi,46.6333,18.2833,9.91,77,100,2.53,HU,1707074221
426,dubbo,-32.25,148.6167,31.07,48,100,8.75,AU,1707074221
427,stjordalshalsen,63.4681,10.9262,-2.82,93,75,3.09,NO,1707074222
428,antsiranana,-12.2787,49.2917,25.35,91,100,2.07,MG,1707074102
429,thomaston,32.8882,-84.3266,6.88,90,100,3.13,US,1707074222
430,brookings,44.3114,-96.7984,2.32,100,100,3.6,US,1707073623
431,mincivan,39.0294,46.7185,5.88,60,87,3.18,AZ,1707074222
432,benjamin aceval,-24.9667,-57.5667,39.97,17,93,2.05,PY,1707074222
433,castillos,-34.1667,-53.8333,23.87,53,14,5.45,UY,1707074222
434,redencao,-4.2258,-38.7306,32.47,44,6,5.25,BR,1707074223
435,shagonar,51.5333,92.8,-26.62,98,100,1.19,RU,1707074223
436,richards bay,-28.783,32.0377,23.99,84,67,3.25,ZA,1707074170
437,dalandzadgad,43.5708,104.425,-14.06,94,89,1.34,MN,1707073782
438,neiafu,-18.65,-173.9833,26.38,94,40,0.0,TO,1707074202
439,sindi,20.8,78.8667,20.49,36,0,0.19,IN,1707074223
440,rapid city,44.0805,-103.231,7.61,94,100,4.92,US,1707074032
441,pacocha,-17.5833,-71.3333,25.76,70,0,3.15,PE,1707074224
442,gadzhiyevo,69.2551,33.3362,-11.73,84,99,7.16,RU,1707074224
443,ain sukhna,29.6002,32.3167,14.3,46,4,2.62,EG,1707074224
444,shelkovskaya,43.5069,46.3392,3.29,75,41,2.32,RU,1707074224
445,garoua boulai,5.8833,14.55,23.31,27,8,2.48,CM,1707074224
446,protaras,35.0125,34.0583,12.22,82,14,0.89,CY,1707074225
447,sarnia,42.9787,-82.4041,5.42,67,0,2.06,CA,1707073966
448,shambu,9.5667,37.1,15.42,59,100,0.71,ET,1707074225
449,rouissat,31.9243,5.3502,13.66,44,0,2.89,DZ,1707074225
450,moroto,2.5345,34.6666,23.62,57,98,8.4,UG,1707074225
451,rikaze,29.25,88.8833,-1.18,28,2,0.63,CN,1707074226
452,colonia,50.9333,6.95,11.99,84,100,8.75,DE,1707074038
453,tolanaro,-25.0319,46.9987,24.3,85,100,6.74,MG,1707074113
454,keyser,39.4409,-78.9739,13.3,47,0,0.45,US,1707074189
455,pisco,-13.7,-76.2167,28.03,61,0,6.69,PE,1707074057
456,guankou,28.15,113.6333,-0.11,97,99,0.98,CN,1707074226
457,ishqoshim,36.7248,71.6133,-15.26,73,5,1.59,TJ,1707074227
458,el jadid,33.2549,-8.506,16.43,75,100,2.98,MA,1707074227
459,asau,46.4333,26.4,5.71,82,100,6.9,RO,1707074227
460,taunggyi,20.7833,97.0333,9.34,58,0,1.25,MM,1707074227
461,sochi,43.6,39.7303,5.05,96,100,8.0,RU,1707074084
462,dauphin,51.1494,-100.0502,2.08,93,100,0.0,CA,1707074227
463,amuntai,-2.4177,115.2494,23.02,99,100,0.92,ID,1707074228
464,al artawiyah,26.5053,45.3444,13.75,33,99,5.41,SA,1707074228
465,darasun,51.6667,114.0,-26.77,100,100,0.66,RU,1707074228
466,el bauga,18.262,33.9081,18.83,16,97,6.81,SD,1707074228
467,pula,44.8683,13.8481,9.31,93,75,2.06,HR,1707074229
468,tukrah,32.5341,20.5791,13.39,70,31,4.03,LY,1707074229
469,altai,46.3722,96.2583,-20.33,76,0,1.19,MN,1707074229
470,el granada,37.5027,-122.4694,13.84,93,100,11.83,US,1707074229
471,namtsy,62.7161,129.6658,-42.12,100,60,0.39,RU,1707074230
472,celestun,20.8667,-90.4,25.92,70,14,4.09,MX,1707074230
473,tamandare,-8.7597,-35.1047,29.03,67,31,4.17,BR,1707074230
474,garagoa,5.0824,-73.3633,20.3,88,100,1.88,CO,1707074230
475,lazaro cardenas,17.9583,-102.2,27.14,56,0,4.76,MX,1707074161
476,port douglas,-16.4833,145.4667,26.85,84,81,1.25,AU,1707074231
477,vanimo,-2.6741,141.3028,25.78,92,100,2.91,PG,1707074231
478,gulf shores,30.246,-87.7008,19.08,74,75,3.6,US,1707074231
479,turar ryskulov,42.5333,70.3333,-4.21,88,98,2.17,KZ,1707074231
480,harstad,68.799,16.5293,-0.34,95,100,6.26,NO,1707074232
481,corner brook,48.9667,-57.9484,-3.91,93,100,6.04,CA,1707074232
482,prince rupert,54.3161,-130.3201,3.83,87,0,7.72,CA,1707074164
483,labrador city,52.9463,-66.9114,-10.05,52,75,1.03,CA,1707074232
484,yigo village,13.5361,144.8886,25.62,83,20,8.75,GU,1707074232
485,sept-iles,50.2001,-66.3821,-1.76,42,20,4.12,CA,1707074233
486,pemba,-12.974,40.5178,28.39,83,20,3.6,MZ,1707074233
487,floro,61.5996,5.0328,2.98,60,40,14.4,NO,1707074233
488,at taraf,25.3628,49.725,14.3,55,80,2.93,SA,1707074233
489,luganville,-15.5333,167.1667,26.31,85,69,1.79,VU,1707074233
490,fortuna,40.5982,-124.1573,8.14,95,100,2.7,US,1707074233
491,walla walla,46.0646,-118.343,11.03,66,0,3.6,US,1707074061
492,roma,43.2128,-75.4557,5.05,59,100,2.06,US,1707073998
493,eureka,40.8021,-124.1637,8.29,93,100,2.68,US,1707074135
494,oamaru,-45.0784,170.9801,16.26,64,20,3.92,NZ,1707074234
495,catalao,-18.1658,-47.9464,20.98,85,100,2.06,BR,1707074234
496,east london,-33.0153,27.9116,25.22,77,100,3.52,ZA,1707074108
497,tres arroyos,-38.3739,-60.2798,30.14,14,7,2.58,AR,1707074235
498,cruzeiro do sul,-29.5128,-51.9853,27.68,68,100,2.98,BR,1707074235
499,nova vicosa,-17.8919,-39.3719,28.2,64,26,3.68,BR,1707074167
500,bode saadu,8.9333,4.7833,31.0,14,27,1.08,NG,1707074235
501,glendive,47.1053,-104.7125,6.79,75,0,4.63,US,1707074236
502,maxixe,-23.8597,35.3472,25.9,83,20,2.57,MZ,1707074236
503,portland,45.5234,-122.6762,11.04,80,40,2.68,US,1707074088
504,cill airne,52.05,-9.5167,10.59,87,97,4.58,IE,1707074236
505,gangapur,26.4833,76.7167,17.3,94,99,3.72,IN,1707074237
506,safonovo,55.15,33.2167,-3.64,88,22,4.09,RU,1707074237
507,dalby,-27.1833,151.2667,22.74,85,100,3.28,AU,1707074237
508,vikulovo,56.8167,70.6107,-9.01,92,100,5.23,RU,1707074237
509,galle,6.0367,80.217,25.37,85,92,2.36,LK,1707074077
510,belyy yar,53.6039,91.3903,-18.06,92,99,1.0,RU,1707074238
511,grootfontein,-19.5667,18.1167,22.76,68,75,1.54,NA,1707074238
512,vera,-29.4593,-60.2126,38.06,28,98,2.78,AR,1707074238
513,leava,-14.3,-178.1667,28.39,74,100,3.4,WF,1707074238
514,darovskoy,58.77,47.9564,-9.75,90,100,5.2,RU,1707074238
515,cabrero,-37.0333,-72.4,34.97,14,0,5.41,CL,1707074118
516,orchard homes,46.8633,-114.0484,2.14,84,100,6.69,US,1707074239
517,piedmont,37.8244,-122.2316,13.56,85,75,12.35,US,1707074239
518,mwene-ditu,-7.0,23.45,20.36,92,100,0.32,CD,1707074239
519,boguchany,58.3814,97.4531,-13.97,92,100,0.89,RU,1707074239
520,taoudenni,22.6783,-3.9836,19.97,17,0,5.6,ML,1707074186
521,fetsund,59.929,11.1625,1.77,71,34,5.67,NO,1707074239
522,vilhena,-12.7406,-60.1458,24.5,85,74,2.13,BR,1707074240
523,karratha,-20.7377,116.8463,31.3,40,74,6.46,AU,1707074240
524,victoria de durango,24.0333,-104.6667,17.82,17,0,3.13,MX,1707074055
525,tofol,5.3248,163.0078,27.89,80,100,10.7,FM,1707074240
526,filiatra,37.15,21.5833,12.05,72,0,3.16,GR,1707074240
527,christchurch,-43.5333,172.6333,17.11,63,26,1.54,NZ,1707074110
528,baidoa,3.1138,43.6498,27.3,47,100,7.02,SO,1707074241
529,prince george,53.9166,-122.753,-8.31,86,0,3.09,CA,1707074111
530,santo antonio,-6.3106,-35.4789,32.15,47,27,7.47,BR,1707074241
531,chinde,26.8418,88.0763,9.42,59,84,1.06,NP,1707074241
532,kenai,60.5544,-151.2583,-10.48,91,100,2.06,US,1707074242
533,errachidia,31.9275,-4.4285,14.03,26,0,1.03,MA,1707074242
534,poykovskiy,61.2333,73.3333,-17.68,84,75,3.0,RU,1707074242
535,lesosibirsk,58.2358,92.4828,-7.27,95,100,2.56,RU,1707074242
536,santa cruz,-17.8,-63.1667,32.7,55,40,4.12,BO,1707074242
537,mermoz boabab,14.7065,-17.4758,30.31,57,0,3.09,SN,1707074243
538,bereket,39.2446,55.5154,8.06,46,1,2.22,TM,1707074243
539,nacozari viejo,30.4,-109.65,12.87,29,0,0.58,MX,1707074243
540,al 'amarah,31.8406,47.1396,13.59,40,0,1.33,IQ,1707074243
541,bengkulu,-3.8004,102.2655,24.8,92,100,2.31,ID,1707074243
542,vallenar,-28.5708,-70.7581,29.01,36,100,4.67,CL,1707074243
543,abashiri,44.0213,144.2697,-12.8,95,52,2.61,JP,1707074244
544,parkes,-33.1333,148.1833,23.53,79,100,3.25,AU,1707074244
545,la quiaca,-22.1024,-65.593,18.89,31,79,7.87,AR,1707074244
546,kafarati,10.383,11.0957,24.77,20,66,3.84,NG,1707074244
547,la sarre,48.8002,-79.1996,-0.19,97,100,0.61,CA,1707074245
548,carboneras,37.0015,-1.9213,13.51,71,0,1.28,ES,1707074245
549,happy valley-goose bay,53.3168,-60.3315,-17.83,65,40,1.03,CA,1707074245
550,dolores,-36.3132,-57.6792,29.12,26,8,6.7,AR,1707074245
551,corinto,37.9407,22.9573,11.98,72,0,3.25,GR,1707074245
552,sao domingos do prata,-19.865,-42.9683,27.43,67,86,2.41,BR,1707074246
553,letlhakeng,-24.0944,25.0298,25.97,38,33,3.23,BW,1707074246
554,saint croix,17.7397,-64.7388,28.31,65,75,4.63,VI,1707074246
555,zaozersk,69.4005,32.4476,-15.77,95,76,3.28,RU,1707074111
556,hirara,24.8,125.2833,23.15,94,75,5.14,JP,1707074246
557,canico,32.6333,-16.85,20.35,77,40,3.09,PT,1707074247
558,elesbao veloso,-6.2019,-42.1403,36.27,30,91,1.55,BR,1707074247
559,olinda,-8.0089,-34.8553,29.85,70,40,4.12,BR,1707074247
560,beihuaidian,39.2553,117.5583,-0.99,50,100,2.27,CN,1707074247
561,marica,-22.9194,-42.8186,27.95,79,100,2.16,BR,1707074134
562,thunder bay,48.4001,-89.3168,4.99,56,0,2.57,CA,1707074248
563,wenling,28.3669,121.36,7.84,92,25,2.65,CN,1707074248
564,bethal,-26.4579,29.4655,15.86,82,97,2.17,ZA,1707074248
565,caras,-9.0467,-77.8114,21.49,74,100,1.98,PE,1707074248
566,kirkwall,58.9848,-2.9587,6.09,81,40,7.72,GB,1707074249
567,swakopmund,-22.6833,14.5333,21.47,87,100,0.45,NA,1707074249
568,nabire,-3.3667,135.4833,24.97,92,94,1.33,ID,1707074249
569,magadan,59.5667,150.8,-23.39,82,6,4.13,RU,1707074249
570,potosi,-19.5836,-65.7531,12.91,42,99,7.21,BO,1707074124
571,rongelap,11.1635,166.8941,26.28,74,100,7.77,MH,1707074249
572,mafinga,-7.25,35.0667,20.45,91,100,0.86,TZ,1707074250
573,rudnyy,52.9594,63.1206,-5.87,91,100,6.84,KZ,1707074250
574,yarkovo,57.4028,67.0786,-12.01,96,93,2.95,RU,1707074250
575,ta'if,21.2703,40.4158,13.56,67,14,3.64,SA,1707074045
